[
  {"name": "Afghanistan", "code": "AFG", "lat": 33.9391, "lon": 67.7100},
  {"name": "Albania", "code": "ALB", "lat": 41.1533, "lon": 20.1683},
  {"name": "Algeria", "code": "DZA", "lat": 28.0339, "lon": 1.6596},
  {"name": "Angola", "code": "AGO", "lat": -11.2027, "lon": 17.8739},
  {"name": "Argentina", "code": "ARG", "lat": -38.4161, "lon": -63.6167},
  {"name": "Armenia", "code": "ARM", "lat": 40.0691, "lon": 45.0382},
  {"name": "Australia", "code": "AUS", "lat": -25.2744, "lon": 133.7751},
  {"name": "Austria", "code": "AUT", "lat": 47.5162, "lon": 14.5501},
  {"name": "Azerbaijan", "code": "AZE", "lat": 40.1431, "lon": 47.5769},
  {"name": "Bahamas", "code": "BHS", "lat": 25.0343, "lon": -77.3963},
  {"name": "Bahrain", "code": "BHR", "lat": 26.0667, "lon": 50.5577},
  {"name": "Bangladesh", "code": "BGD", "lat": 23.6850, "lon": 90.3563},
  {"name": "Belarus", "code": "BLR", "lat": 53.7098, "lon": 27.9534},
  {"name": "Belgium", "code": "BEL", "lat": 50.5039, "lon": 4.4699},
  {"name": "Belize", "code": "BLZ", "lat": 17.1899, "lon": -88.4976},
  {"name": "Benin", "code": "BEN", "lat": 9.3077, "lon": 2.3158},
  {"name": "Bhutan", "code": "BTN", "lat": 27.5142, "lon": 90.4336},
  {"name": "Bolivia", "code": "BOL", "lat": -16.2902, "lon": -63.5887},
  {"name": "Bosnia and Herzegovina", "code": "BIH", "lat": 43.9159, "lon": 17.6791},
  {"name": "Botswana", "code": "BWA", "lat": -22.3285, "lon": 24.6849},
  {"name": "Brazil", "code": "BRA", "lat": -14.2350, "lon": -51.9253},
  {"name": "Bulgaria", "code": "BGR", "lat": 42.7339, "lon": 25.4858},
  {"name": "Burkina Faso", "code": "BFA", "lat": 12.2383, "lon": -1.5616},
  {"name": "Burundi", "code": "BDI", "lat": -3.3731, "lon": 29.9189},
  {"name": "Cambodia", "code": "KHM", "lat": 12.5657, "lon": 104.9910},
  {"name": "Cameroon", "code": "CMR", "lat": 7.3697, "lon": 12.3547},
  {"name": "Canada", "code": "CAN", "lat": 56.1304, "lon": -106.3468},
  {"name": "Central African Republic", "code": "CAF", "lat": 6.6111, "lon": 20.9394},
  {"name": "Chad", "code": "TCD", "lat": 15.4542, "lon": 18.7322},
  {"name": "Chile", "code": "CHL", "lat": -35.6751, "lon": -71.5430},
  {"name": "China", "code": "CHN", "lat": 35.8617, "lon": 104.1954},
  {"name": "Colombia", "code": "COL", "lat": 4.5709, "lon": -74.2973},
  {"name": "Costa Rica", "code": "CRI", "lat": 9.7489, "lon": -83.7534},
  {"name": "Croatia", "code": "HRV", "lat": 45.1000, "lon": 15.2000},
  {"name": "Cuba", "code": "CUB", "lat": 21.5218, "lon": -77.7812},
  {"name": "Cyprus", "code": "CYP", "lat": 35.1264, "lon": 33.4299},
  {"name": "Czech Republic", "code": "CZE", "lat": 49.8175, "lon": 15.4730},
  {"name": "Denmark", "code": "DNK", "lat": 56.2639, "lon": 9.5018},
  {"name": "Djibouti", "code": "DJI", "lat": 11.8251, "lon": 42.5903},
  {"name": "Dominican Republic", "code": "DOM", "lat": 18.7357, "lon": -70.1627},
  {"name": "Ecuador", "code": "ECU", "lat": -1.8312, "lon": -78.1834},
  {"name": "Egypt", "code": "EGY", "lat": 26.8206, "lon": 30.8025},
  {"name": "El Salvador", "code": "SLV", "lat": 13.7942, "lon": -88.8965},
  {"name": "Equatorial Guinea", "code": "GNQ", "lat": 1.6508, "lon": 10.2679},
  {"name": "Eritrea", "code": "ERI", "lat": 15.1794, "lon": 39.7823},
  {"name": "Estonia", "code": "EST", "lat": 58.5953, "lon": 25.0136},
  {"name": "Ethiopia", "code": "ETH", "lat": 9.1450, "lon": 40.4897},
  {"name": "Fiji", "code": "FJI", "lat": -17.7134, "lon": 178.0650},
  {"name": "Finland", "code": "FIN", "lat": 61.9241, "lon": 25.7482},
  {"name": "France", "code": "FRA", "lat": 46.2276, "lon": 2.2137},
  {"name": "Gabon", "code": "GAB", "lat": -0.8037, "lon": 11.6094},
  {"name": "Gambia", "code": "GMB", "lat": 13.4432, "lon": -15.3101},
  {"name": "Georgia", "code": "GEO", "lat": 42.3154, "lon": 43.3569},
  {"name": "Germany", "code": "DEU", "lat": 51.1657, "lon": 10.4515},
  {"name": "Ghana", "code": "GHA", "lat": 7.9465, "lon": -1.0232},
  {"name": "Greece", "code": "GRC", "lat": 39.0742, "lon": 21.8243},
  {"name": "Guatemala", "code": "GTM", "lat": 15.7835, "lon": -90.2308},
  {"name": "Guinea", "code": "GIN", "lat": 9.9456, "lon": -9.6966},
  {"name": "Guyana", "code": "GUY", "lat": 4.8604, "lon": -58.9302},
  {"name": "Haiti", "code": "HTI", "lat": 18.9712, "lon": -72.2852},
  {"name": "Honduras", "code": "HND", "lat": 15.1999, "lon": -86.2419},
  {"name": "Hungary", "code": "HUN", "lat": 47.1625, "lon": 19.5033},
  {"name": "Iceland", "code": "ISL", "lat": 64.9631, "lon": -19.0208},
  {"name": "India", "code": "IND", "lat": 20.5937, "lon": 78.9629},
  {"name": "Indonesia", "code": "IDN", "lat": -0.7893, "lon": 113.9213},
  {"name": "Iran", "code": "IRN", "lat": 32.4279, "lon": 53.6880},
  {"name": "Iraq", "code": "IRQ", "lat": 33.2232, "lon": 43.6793},
  {"name": "Ireland", "code": "IRL", "lat": 53.4129, "lon": -8.2439},
  {"name": "Israel", "code": "ISR", "lat": 31.0461, "lon": 34.8516},
  {"name": "Italy", "code": "ITA", "lat": 41.8719, "lon": 12.5674},
  {"name": "Jamaica", "code": "JAM", "lat": 18.1096, "lon": -77.2975},
  {"name": "Japan", "code": "JPN", "lat": 36.2048, "lon": 138.2529},
  {"name": "Jordan", "code": "JOR", "lat": 30.5852, "lon": 36.2384},
  {"name": "Kazakhstan", "code": "KAZ", "lat": 48.0196, "lon": 66.9237},
  {"name": "Kenya", "code": "KEN", "lat": -1.2863, "lon": 36.8172},
  {"name": "Korea, South", "code": "KOR", "lat": 35.9078, "lon": 127.7669},
  {"name": "Kuwait", "code": "KWT", "lat": 29.3117, "lon": 47.4818},
  {"name": "Kyrgyzstan", "code": "KGZ", "lat": 41.2044, "lon": 74.7661},
  {"name": "Laos", "code": "LAO", "lat": 19.8563, "lon": 102.4955},
  {"name": "Latvia", "code": "LVA", "lat": 56.8796, "lon": 24.6032},
  {"name": "Lebanon", "code": "LBN", "lat": 33.8547, "lon": 35.8623},
  {"name": "Lesotho", "code": "LSO", "lat": -29.6100, "lon": 28.2336},
  {"name": "Liberia", "code": "LBR", "lat": 6.4281, "lon": -9.4295},
  {"name": "Libya", "code": "LBY", "lat": 26.3351, "lon": 17.2283},
  {"name": "Lithuania", "code": "LTU", "lat": 55.1694, "lon": 23.8813},
  {"name": "Luxembourg", "code": "LUX", "lat": 49.8153, "lon": 6.1296},
  {"name": "Madagascar", "code": "MDG", "lat": -18.7669, "lon": 46.8691},
  {"name": "Malawi", "code": "MWI", "lat": -13.2543, "lon": 34.3015},
  {"name": "Malaysia", "code": "MYS", "lat": 4.2105, "lon": 101.9758},
  {"name": "Maldives", "code": "MDV", "lat": 3.2028, "lon": 73.2207},
  {"name": "Mali", "code": "MLI", "lat": 17.5707, "lon": -3.9962},
  {"name": "Mauritania", "code": "MRT", "lat": 21.0079, "lon": -10.9408},
  {"name": "Mauritius", "code": "MUS", "lat": -20.3484, "lon": 57.5522},
  {"name": "Mexico", "code": "MEX", "lat": 23.6345, "lon": -102.5528},
  {"name": "Moldova", "code": "MDA", "lat": 47.4116, "lon": 28.3699},
  {"name": "Mongolia", "code": "MNG", "lat": 46.8625, "lon": 103.8467},
  {"name": "Montenegro", "code": "MNE", "lat": 42.7087, "lon": 19.3744},
  {"name": "Morocco", "code": "MAR", "lat": 31.7917, "lon": -7.0926},
  {"name": "Mozambique", "code": "MOZ", "lat": -18.6657, "lon": 35.5296},
  {"name": "Myanmar", "code": "MMR", "lat": 21.9162, "lon": 95.9560},
  {"name": "Namibia", "code": "NAM", "lat": -22.9576, "lon": 18.4904},
  {"name": "Nepal", "code": "NPL", "lat": 28.3949, "lon": 84.1240},
  {"name": "Netherlands", "code": "NLD", "lat": 52.1326, "lon": 5.2913},
  {"name": "New Zealand", "code": "NZL", "lat": -40.9006, "lon": 174.8860},
  {"name": "Nicaragua", "code": "NIC", "lat": 12.8654, "lon": -85.2072},
  {"name": "Niger", "code": "NER", "lat": 17.6078, "lon": 8.0817},
  {"name": "Nigeria", "code": "NGA", "lat": 9.0820, "lon": 8.6753},
  {"name": "North Macedonia", "code": "MKD", "lat": 41.6086, "lon": 21.7453},
  {"name": "Norway", "code": "NOR", "lat": 60.4720, "lon": 8.4689},
  {"name": "Oman", "code": "OMN", "lat": 21.4735, "lon": 55.9754},
  {"name": "Pakistan", "code": "PAK", "lat": 30.3753, "lon": 69.3451},
  {"name": "Panama", "code": "PAN", "lat": 8.5380, "lon": -80.7821},
  {"name": "Papua New Guinea", "code": "PNG", "lat": -6.3150, "lon": 143.9555},
  {"name": "Paraguay", "code": "PRY", "lat": -23.4425, "lon": -58.4438},
  {"name": "Peru", "code": "PER", "lat": -9.1900, "lon": -75.0152},
  {"name": "Philippines", "code": "PHL", "lat": 12.8797, "lon": 121.7740},
  {"name": "Poland", "code": "POL", "lat": 51.9194, "lon": 19.1451},
  {"name": "Portugal", "code": "PRT", "lat": 39.3999, "lon": -8.2245},
  {"name": "Qatar", "code": "QAT", "lat": 25.3548, "lon": 51.1839},
  {"name": "Romania", "code": "ROU", "lat": 45.9432, "lon": 24.9668},
  {"name": "Russia", "code": "RUS", "lat": 61.5240, "lon": 105.3188},
  {"name": "Rwanda", "code": "RWA", "lat": -1.9403, "lon": 29.8739},
  {"name": "Saudi Arabia", "code": "SAU", "lat": 23.8859, "lon": 45.0792},
  {"name": "Senegal", "code": "SEN", "lat": 14.4974, "lon": -14.4524},
  {"name": "Serbia", "code": "SRB", "lat": 44.0165, "lon": 21.0059},
  {"name": "Sierra Leone", "code": "SLE", "lat": 8.4606, "lon": -11.7799},
  {"name": "Singapore", "code": "SGP", "lat": 1.3521, "lon": 103.8198},
  {"name": "Slovakia", "code": "SVK", "lat": 48.6690, "lon": 19.6990},
  {"name": "Slovenia", "code": "SVN", "lat": 46.1512, "lon": 14.9955},
  {"name": "Somalia", "code": "SOM", "lat": 5.1521, "lon": 46.1996},
  {"name": "South Africa", "code": "ZAF", "lat": -30.5595, "lon": 22.9375},
  {"name": "South Sudan", "code": "SSD", "lat": 6.8770, "lon": 31.3070},
  {"name": "Spain", "code": "ESP", "lat": 40.4637, "lon": -3.7492},
  {"name": "Sri Lanka", "code": "LKA", "lat": 7.8731, "lon": 80.7718},
  {"name": "Sudan", "code": "SDN", "lat": 12.8628, "lon": 30.2176},
  {"name": "Suriname", "code": "SUR", "lat": 3.9193, "lon": -56.0278},
  {"name": "Sweden", "code": "SWE", "lat": 60.1282, "lon": 18.6435},
  {"name": "Switzerland", "code": "CHE", "lat": 46.8182, "lon": 8.2275},
  {"name": "Syria", "code": "SYR", "lat": 34.8021, "lon": 38.9968},
  {"name": "Tajikistan", "code": "TJK", "lat": 38.8610, "lon": 71.2761},
  {"name": "Tanzania", "code": "TZA", "lat": -6.3690, "lon": 34.8888},
  {"name": "Thailand", "code": "THA", "lat": 15.8700, "lon": 100.9925},
  {"name": "Togo", "code": "TGO", "lat": 8.6195, "lon": 0.8248},
  {"name": "Trinidad and Tobago", "code": "TTO", "lat": 10.6918, "lon": -61.2225},
  {"name": "Tunisia", "code": "TUN", "lat": 33.8869, "lon": 9.5375},
  {"name": "Turkey", "code": "TUR", "lat": 38.9637, "lon": 35.2433},
  {"name": "Turkmenistan", "code": "TKM", "lat": 38.9697, "lon": 59.5563},
  {"name": "Uganda", "code": "UGA", "lat": 1.3733, "lon": 32.2903},
  {"name": "Ukraine", "code": "UKR", "lat": 48.3794, "lon": 31.1656},
  {"name": "United Arab Emirates", "code": "ARE", "lat": 23.4241, "lon": 53.8478},
  {"name": "United Kingdom", "code": "GBR", "lat": 55.3781, "lon": -3.4360},
  {"name": "United States", "code": "USA", "lat": 37.0902, "lon": -95.7129},
  {"name": "Uruguay", "code": "URY", "lat": -32.5228, "lon": -55.7658},
  {"name": "Uzbekistan", "code": "UZB", "lat": 41.3775, "lon": 64.5853},
  {"name": "Venezuela", "code": "VEN", "lat": 6.4238, "lon": -66.5897},
  {"name": "Vietnam", "code": "VNM", "lat": 14.0583, "lon": 108.2772},
  {"name": "Yemen", "code": "YEM", "lat": 15.5527, "lon": 48.5164},
  {"name": "Zambia", "code": "ZMB", "lat": -13.1339, "lon": 27.8493},
  {"name": "Zimbabwe", "code": "ZWE", "lat": -19.0154, "lon": 29.1549}
]